{"totalClaims": 203967, "dateRange": ["2002-01-04", "2015-12-31"], "overallApprovalRate": 39.7, "airports": [{"code": "LAX", "name": "LOS ANGELES INTERNATIONAL", "city": "LOS ANGELES", "lat": 33.942, "lon": -118.408, "claims": 9589, "byType": {"-": 11, "Complaint": 2, "Employee Loss (MPCECA)": 21, "Motor Vehicle": 9, "Passenger Property Loss": 5808, "Passenger Theft": 26, "Personal Injury": 64, "Property Damage": 3267}, "bySite": {"-": 4, "Bus Station": 1, "Checked Baggage": 7261, "Checkpoint": 2190, "Motor Vehicle": 8, "Other": 110}}, {"code": "JFK", "name": "JOHN F KENNEDY INTERNATIONAL", "city": "NEW YORK", "lat": 40.64, "lon": -73.779, "claims": 9225, "byType": {"-": 16, "Complaint": 2, "Employee Loss (MPCECA)": 14, "Motor Vehicle": 9, "Passenger Property Loss": 6330, "Passenger Theft": 17, "Personal Injury": 52, "Property Damage": 2578}, "bySite": {"-": 13, "Bus Station": 2, "Checked Baggage": 7208, "Checkpoint": 1906, "Motor Vehicle": 9, "Other": 65}}, {"code": "EWR", "name": "NEWARK LIBERTY INTERNATIONAL", "city": "NEWARK", "lat": 40.692, "lon": -74.169, "claims": 6863, "byType": {"-": 5, "Complaint": 2, "Employee Loss (MPCECA)": 22, "Motor Vehicle": 5, "Passenger Property Loss": 4301, "Passenger Theft": 15, "Personal Injury": 36, "Property Damage": 2266}, "bySite": {"-": 3, "Bus Station": 2, "Checked Baggage": 5620, "Checkpoint": 1148, "Motor Vehicle": 7, "Other": 63}}, {"code": "ORD", "name": "CHICAGO OHARE INTERNATIONAL", "city": "CHICAGO", "lat": 41.979, "lon": -87.904, "claims": 6842, "byType": {"-": 10, "Employee Loss (MPCECA)": 24, "Motor Vehicle": 6, "Passenger Property Loss": 3687, "Passenger Theft": 20, "Personal Injury": 35, "Property Damage": 2852}, "bySite": {"-": 6, "Bus Station": 1, "Checked Baggage": 5396, "Checkpoint": 1352, "Motor Vehicle": 8, "Other": 59}}, {"code": "MIA", "name": "MIAMI INTERNATIONAL", "city": "MIAMI", "lat": 25.793, "lon": -80.291, "claims": 6425, "byType": {"-": 7, "Complaint": 1, "Employee Loss (MPCECA)": 19, "Motor Vehicle": 6, "Passenger Property Loss": 3936, "Passenger Theft": 14, "Personal Injury": 36, "Property Damage": 2183}, "bySite": {"-": 5, "Checked Baggage": 5387, "Checkpoint": 973, "Motor Vehicle": 5, "Other": 38}}, {"code": "MCO", "name": "ORLANDO INTERNATIONAL", "city": "ORLANDO", "lat": 28.429, "lon": -81.316, "claims": 6388, "byType": {"-": 5, "Complaint": 2, "Employee Loss (MPCECA)": 14, "Motor Vehicle": 4, "Passenger Property Loss": 4048, "Passenger Theft": 13, "Personal Injury": 52, "Property Damage": 2067}, "bySite": {"-": 8, "Checked Baggage": 5005, "Checkpoint": 1322, "Motor Vehicle": 3, "Other": 35}}, {"code": "ATL", "name": "THE WILLIAM B HARTSFIELD ATLANTA INTERNATIONAL", "city": "ATLANTA", "lat": 33.64, "lon": -84.427, "claims": 5865, "byType": {"-": 6, "Complaint": 1, "Employee Loss (MPCECA)": 10, "Motor Vehicle": 3, "Passenger Property Loss": 3563, "Passenger Theft": 17, "Personal Injury": 44, "Property Damage": 2083}, "bySite": {"-": 1, "Bus Station": 1, "Checked Baggage": 4507, "Checkpoint": 1299, "Motor Vehicle": 2, "Other": 46}}, {"code": "SEA", "name": "SEATTLE TACOMA INTERNATIONAL", "city": "SEATTLE", "lat": 47.449, "lon": -122.309, "claims": 5392, "byType": {"-": 4, "Complaint": 1, "Employee Loss (MPCECA)": 16, "Passenger Property Loss": 3111, "Passenger Theft": 20, "Personal Injury": 26, "Property Damage": 2030}, "bySite": {"-": 2, "Checked Baggage": 4344, "Checkpoint": 1000, "Motor Vehicle": 2, "Other": 39}}, {"code": "PHX", "name": "PHOENIX SKY HARBOR INTERNATIONAL", "city": "PHOENIX", "lat": 33.434, "lon": -112.008, "claims": 5081, "byType": {"-": 7, "Complaint": 4, "Employee Loss (MPCECA)": 11, "Passenger Property Loss": 2953, "Passenger Theft": 14, "Personal Injury": 48, "Property Damage": 1879}, "bySite": {"-": 6, "Checked Baggage": 4167, "Checkpoint": 863, "Other": 36}}, {"code": "LAS", "name": "MC CARRAN INTERNATIONAL", "city": "LAS VEGAS", "lat": 36.08, "lon": -115.152, "claims": 5054, "byType": {"-": 3, "Complaint": 2, "Employee Loss (MPCECA)": 10, "Motor Vehicle": 2, "Passenger Property Loss": 3189, "Passenger Theft": 15, "Personal Injury": 48, "Property Damage": 1641}, "bySite": {"-": 4, "Checked Baggage": 3965, "Checkpoint": 1027, "Other": 45}}, {"code": "PHL", "name": "PHILADELPHIA INTERNATIONAL", "city": "PHILADELPHIA", "lat": 39.872, "lon": -75.241, "claims": 4673, "byType": {"-": 3, "Employee Loss (MPCECA)": 9, "Motor Vehicle": 4, "Passenger Property Loss": 2907, "Passenger Theft": 16, "Personal Injury": 31, "Property Damage": 1549}, "bySite": {"-": 3, "Bus Station": 1, "Checked Baggage": 3820, "Checkpoint": 799, "Motor Vehicle": 2, "Other": 38}}, {"code": "DFW", "name": "DALLAS FORT WORTH INTERNATIONAL", "city": "DALLAS-FORT WORTH", "lat": 32.896, "lon": -97.037, "claims": 4397, "byType": {"-": 10, "Employee Loss (MPCECA)": 11, "Motor Vehicle": 3, "Passenger Property Loss": 2452, "Passenger Theft": 4, "Personal Injury": 21, "Property Damage": 1782}, "bySite": {"-": 3, "Checked Baggage": 3434, "Checkpoint": 933, "Motor Vehicle": 2, "Other": 20}}, {"code": "FLL", "name": "FORT LAUDERDALE HOLLYWOOD INTERNATIONAL", "city": "FORT LAUDERDALE", "lat": 26.072, "lon": -80.153, "claims": 4115, "byType": {"-": 2, "Employee Loss (MPCECA)": 5, "Motor Vehicle": 2, "Passenger Property Loss": 2469, "Passenger Theft": 10, "Personal Injury": 36, "Property Damage": 1465}, "bySite": {"-": 5, "Checked Baggage": 3159, "Checkpoint": 914, "Motor Vehicle": 1, "Other": 29}}, {"code": "BOS", "name": "GENERAL EDWARD LAWRENCE LOGAN INTERNATIONAL", "city": "BOSTON", "lat": 42.364, "lon": -71.005, "claims": 4112, "byType": {"-": 6, "Employee Loss (MPCECA)": 10, "Motor Vehicle": 1, "Passenger Property Loss": 2425, "Passenger Theft": 6, "Personal Injury": 31, "Property Damage": 1512}, "bySite": {"-": 6, "Checked Baggage": 2919, "Checkpoint": 1150, "Motor Vehicle": 2, "Other": 29}}, {"code": "IAD", "name": "WASHINGTON DULLES INTERNATIONAL", "city": "WASHINGTON", "lat": 38.944, "lon": -77.456, "claims": 3929, "byType": {"-": 3, "Employee Loss (MPCECA)": 13, "Motor Vehicle": 2, "Passenger Property Loss": 2225, "Passenger Theft": 9, "Personal Injury": 27, "Property Damage": 1579}, "bySite": {"-": 5, "Checked Baggage": 3296, "Checkpoint": 602, "Motor Vehicle": 2, "Other": 19}}, {"code": "DEN", "name": "DENVER INTERNATIONAL", "city": "DENVER", "lat": 39.858, "lon": -104.667, "claims": 3923, "byType": {"-": 1, "Complaint": 2, "Employee Loss (MPCECA)": 3, "Motor Vehicle": 2, "Passenger Property Loss": 2273, "Passenger Theft": 7, "Personal Injury": 31, "Property Damage": 1513}, "bySite": {"-": 1, "Bus Station": 1, "Checked Baggage": 3117, "Checkpoint": 776, "Other": 23}}, {"code": "LGA", "name": "LA GUARDIA", "city": "NEW YORK", "lat": 40.777, "lon": -73.872, "claims": 3876, "byType": {"-": 4, "Employee Loss (MPCECA)": 5, "Motor Vehicle": 6, "Passenger Property Loss": 2307, "Passenger Theft": 8, "Personal Injury": 32, "Property Damage": 1357}, "bySite": {"-": 2, "Checked Baggage": 2837, "Checkpoint": 974, "Motor Vehicle": 7, "Other": 45}}, {"code": "TPA", "name": "TAMPA INTERNATIONAL", "city": "TAMPA", "lat": 27.975, "lon": -82.533, "claims": 3353, "byType": {"-": 3, "Employee Loss (MPCECA)": 13, "Passenger Property Loss": 1834, "Passenger Theft": 7, "Personal Injury": 20, "Property Damage": 1360}, "bySite": {"-": 1, "Checked Baggage": 2802, "Checkpoint": 518, "Other": 26}}, {"code": "IAH", "name": "GEORGE BUSH INTCNTL HOUSTON", "city": "HOUSTON", "lat": 29.98, "lon": -95.34, "claims": 3252, "byType": {"-": 1, "Complaint": 1, "Employee Loss (MPCECA)": 9, "Motor Vehicle": 1, "Passenger Property Loss": 1933, "Passenger Theft": 10, "Personal Injury": 24, "Property Damage": 1201}, "bySite": {"-": 4, "Checked Baggage": 2611, "Checkpoint": 613, "Other": 20}}, {"code": "MSP", "name": "MINNEAPOLIS ST PAUL INTERNATIONAL", "city": "MINNEAPOLIS", "lat": 44.88, "lon": -93.217, "claims": 3187, "byType": {"-": 2, "Employee Loss (MPCECA)": 11, "Passenger Property Loss": 1608, "Passenger Theft": 8, "Personal Injury": 18, "Property Damage": 1407}, "bySite": {"Checked Baggage": 2672, "Checkpoint": 491, "Motor Vehicle": 1, "Other": 18}}, {"code": "SAN", "name": "SAN DIEGO INTERNATIONAL LINDBERGH FLD", "city": "SAN DIEGO", "lat": 32.733, "lon": -117.189, "claims": 3058, "byType": {"-": 3, "Employee Loss (MPCECA)": 2, "Passenger Property Loss": 1776, "Passenger Theft": 4, "Personal Injury": 17, "Property Damage": 1178}, "bySite": {"-": 3, "Checked Baggage": 2553, "Checkpoint": 476, "Other": 21}}, {"code": "DTW", "name": "DETROIT METRO WAYNE CO", "city": "DETROIT", "lat": 42.212, "lon": -83.353, "claims": 2957, "byType": {"-": 2, "Employee Loss (MPCECA)": 3, "Motor Vehicle": 5, "Passenger Property Loss": 1599, "Passenger Theft": 11, "Personal Injury": 19, "Property Damage": 1196}, "bySite": {"-": 3, "Checked Baggage": 2421, "Checkpoint": 494, "Motor Vehicle": 5, "Other": 32}}, {"code": "BWI", "name": "BALTIMORE WASHINGTON INTERNATIONAL", "city": "BALTIMORE", "lat": 39.175, "lon": -76.668, "claims": 2874, "byType": {"-": 6, "Employee Loss (MPCECA)": 2, "Motor Vehicle": 2, "Passenger Property Loss": 1641, "Passenger Theft": 14, "Personal Injury": 18, "Property Damage": 1076}, "bySite": {"-": 3, "Checked Baggage": 2163, "Checkpoint": 664, "Motor Vehicle": 1, "Other": 39}}, {"code": "PDX", "name": "PORTLAND INTERNATIONAL", "city": "PORTLAND", "lat": 45.589, "lon": -122.597, "claims": 2042, "byType": {"-": 1, "Employee Loss (MPCECA)": 3, "Motor Vehicle": 3, "Passenger Property Loss": 1176, "Passenger Theft": 4, "Personal Injury": 19, "Property Damage": 769}, "bySite": {"Checked Baggage": 1600, "Checkpoint": 426, "Motor Vehicle": 3, "Other": 13}}, {"code": "CLT", "name": "CHARLOTTE DOUGLAS INTERNATIONAL", "city": "CHARLOTTE", "lat": 35.214, "lon": -80.943, "claims": 1883, "byType": {"-": 1, "Complaint": 1, "Employee Loss (MPCECA)": 5, "Passenger Property Loss": 1043, "Passenger Theft": 1, "Personal Injury": 9, "Property Damage": 785}, "bySite": {"-": 1, "Checked Baggage": 1525, "Checkpoint": 346, "Motor Vehicle": 1, "Other": 7}}, {"code": "OAK", "name": "METROPOLITAN OAKLAND INTERNATIONAL", "city": "OAKLAND", "lat": 37.721, "lon": -122.221, "claims": 1882, "byType": {"-": 1, "Employee Loss (MPCECA)": 9, "Passenger Property Loss": 1203, "Passenger Theft": 3, "Personal Injury": 12, "Property Damage": 595}, "bySite": {"Checked Baggage": 1481, "Checkpoint": 387, "Other": 13}}, {"code": "MDW", "name": "CHICAGO MIDWAY INTERNATIONAL", "city": "CHICAGO", "lat": 41.786, "lon": -87.752, "claims": 1643, "byType": {"Employee Loss (MPCECA)": 1, "Passenger Property Loss": 1015, "Passenger Theft": 1, "Personal Injury": 14, "Property Damage": 561}, "bySite": {"-": 2, "Checked Baggage": 1227, "Checkpoint": 398, "Motor Vehicle": 1, "Other": 12}}, {"code": "DCA", "name": "RONALD REAGAN WASHINGTON NATIONAL", "city": "WASHINGTON", "lat": 38.852, "lon": -77.037, "claims": 1627, "byType": {"-": 5, "Employee Loss (MPCECA)": 2, "Motor Vehicle": 2, "Passenger Property Loss": 935, "Passenger Theft": 4, "Personal Injury": 13, "Property Damage": 617}, "bySite": {"-": 4, "Checked Baggage": 1022, "Checkpoint": 576, "Motor Vehicle": 2, "Other": 23}}, {"code": "PBI", "name": "PALM BEACH INTERNATIONAL", "city": "WEST PALM BEACH", "lat": 26.683, "lon": -80.096, "claims": 1533, "byType": {"-": 1, "Employee Loss (MPCECA)": 5, "Motor Vehicle": 1, "Passenger Property Loss": 839, "Passenger Theft": 5, "Personal Injury": 12, "Property Damage": 598}, "bySite": {"Checked Baggage": 1189, "Checkpoint": 329, "Motor Vehicle": 1, "Other": 8}}, {"code": "MSY", "name": "LOUIS ARMSTRONG NEW ORLEANS INTERNATIONAL", "city": "NEW ORLEANS", "lat": 29.993, "lon": -90.258, "claims": 1500, "byType": {"-": 1, "Complaint": 2, "Employee Loss (MPCECA)": 3, "Motor Vehicle": 2, "Passenger Property Loss": 821, "Passenger Theft": 9, "Personal Injury": 16, "Property Damage": 588}, "bySite": {"Bus Station": 1, "Checked Baggage": 1147, "Checkpoint": 330, "Motor Vehicle": 3, "Other": 13}}, {"code": "SJC", "name": "NORMAN Y MINETA SAN JOSE INTERNATIONAL", "city": "SAN JOSE", "lat": 37.362, "lon": -121.929, "claims": 1466, "byType": {"-": 1, "Motor Vehicle": 2, "Passenger Property Loss": 857, "Passenger Theft": 6, "Personal Injury": 13, "Property Damage": 526}, "bySite": {"-": 1, "Checked Baggage": 1243, "Checkpoint": 205, "Motor Vehicle": 2, "Other": 13}}, {"code": "SLC", "name": "SALT LAKE CITY INTERNATIONAL", "city": "SALT LAKE CITY", "lat": 40.788, "lon": -111.978, "claims": 1412, "byType": {"-": 2, "Employee Loss (MPCECA)": 2, "Motor Vehicle": 2, "Passenger Property Loss": 729, "Passenger Theft": 2, "Personal Injury": 7, "Property Damage": 622}, "bySite": {"-": 1, "Checked Baggage": 1055, "Checkpoint": 341, "Motor Vehicle": 3, "Other": 12}}, {"code": "SNA", "name": "JOHN WAYNE ARPT ORANGE CO", "city": "SANTA ANA", "lat": 33.676, "lon": -117.868, "claims": 1369, "byType": {"-": 2, "Employee Loss (MPCECA)": 1, "Motor Vehicle": 2, "Passenger Property Loss": 773, "Passenger Theft": 3, "Personal Injury": 13, "Property Damage": 533}, "bySite": {"-": 1, "Checked Baggage": 1089, "Checkpoint": 264, "Motor Vehicle": 3, "Other": 9}}, {"code": "SMF", "name": "SACRAMENTO INTERNATIONAL", "city": "SACRAMENTO", "lat": 38.695, "lon": -121.591, "claims": 1345, "byType": {"Complaint": 1, "Employee Loss (MPCECA)": 2, "Motor Vehicle": 2, "Passenger Property Loss": 772, "Passenger Theft": 2, "Personal Injury": 17, "Property Damage": 511}, "bySite": {"-": 2, "Checked Baggage": 1071, "Checkpoint": 258, "Motor Vehicle": 3, "Other": 9}}, {"code": "STL", "name": "LAMBERT ST LOUIS INTERNATIONAL", "city": "ST. LOUIS", "lat": 38.748, "lon": -90.36, "claims": 1307, "byType": {"-": 1, "Complaint": 1, "Employee Loss (MPCECA)": 2, "Motor Vehicle": 3, "Passenger Property Loss": 681, "Passenger Theft": 3, "Personal Injury": 9, "Property Damage": 561}, "bySite": {"-": 3, "Checked Baggage": 949, "Checkpoint": 336, "Motor Vehicle": 6, "Other": 12}}, {"code": "RSW", "name": "SOUTHWEST FLORIDA INTERNATIONAL", "city": "FORT MYERS", "lat": 26.536, "lon": -81.755, "claims": 1297, "byType": {"Employee Loss (MPCECA)": 1, "Passenger Property Loss": 699, "Passenger Theft": 5, "Personal Injury": 8, "Property Damage": 542}, "bySite": {"-": 1, "Bus Station": 1, "Checked Baggage": 940, "Checkpoint": 345, "Other": 9}}, {"code": "PIT", "name": "PITTSBURGH INTERNATIONAL", "city": "PITTSBURGH (PENNSYLVA)", "lat": 40.491, "lon": -80.233, "claims": 1290, "byType": {"-": 1, "Employee Loss (MPCECA)": 8, "Passenger Property Loss": 654, "Passenger Theft": 4, "Personal Injury": 4, "Property Damage": 571}, "bySite": {"-": 1, "Checked Baggage": 941, "Checkpoint": 329, "Motor Vehicle": 1, "Other": 17}}, {"code": "SFO", "name": "SAN FRANCISCO INTERNATIONAL", "city": "SAN FRANCISCO", "lat": 37.619, "lon": -122.375, "claims": 1221, "byType": {"-": 2, "Employee Loss (MPCECA)": 9, "Passenger Property Loss": 807, "Passenger Theft": 9, "Personal Injury": 13, "Property Damage": 355}, "bySite": {"-": 2, "Checked Baggage": 1033, "Checkpoint": 164, "Motor Vehicle": 1, "Other": 12}}, {"code": "CLE", "name": "CLEVELAND HOPKINS INTERNATIONAL", "city": "CLEVELAND", "lat": 41.412, "lon": -81.85, "claims": 1164, "byType": {"Employee Loss (MPCECA)": 3, "Passenger Property Loss": 634, "Passenger Theft": 2, "Personal Injury": 10, "Property Damage": 461}, "bySite": {"-": 2, "Checked Baggage": 910, "Checkpoint": 237, "Other": 14}}, {"code": "BNA", "name": "NASHVILLE INTERNATIONAL", "city": "NASHVILLE", "lat": 36.124, "lon": -86.678, "claims": 1161, "byType": {"-": 1, "Employee Loss (MPCECA)": 1, "Passenger Property Loss": 645, "Passenger Theft": 4, "Personal Injury": 5, "Property Damage": 464}, "bySite": {"Checked Baggage": 916, "Checkpoint": 230, "Other": 11}}, {"code": "CVG", "name": "CINCINNATI NORTHERN KENTUCKY INTERNATIONAL", "city": "CINCINNATI", "lat": 39.046, "lon": -84.662, "claims": 1132, "byType": {"-": 1, "Employee Loss (MPCECA)": 2, "Passenger Property Loss": 570, "Passenger Theft": 7, "Personal Injury": 2, "Property Damage": 495}, "bySite": {"-": 1, "Checked Baggage": 957, "Checkpoint": 163, "Other": 11}}, {"code": "HOU", "name": "WILLIAM P HOBBY", "city": "HOUSTON", "lat": 29.645, "lon": -95.279, "claims": 1123, "byType": {"-": 1, "Complaint": 1, "Employee Loss (MPCECA)": 4, "Motor Vehicle": 1, "Passenger Property Loss": 637, "Passenger Theft": 1, "Personal Injury": 8, "Property Damage": 434}, "bySite": {"-": 2, "Checked Baggage": 862, "Checkpoint": 242, "Motor Vehicle": 3, "Other": 14}}, {"code": "RDU", "name": "RALEIGH DURHAM INTERNATIONAL", "city": "RALEIGH-DURHAM", "lat": 35.877, "lon": -78.787, "claims": 1110, "byType": {"-": 1, "Employee Loss (MPCECA)": 2, "Passenger Property Loss": 616, "Passenger Theft": 1, "Personal Injury": 12, "Property Damage": 441}, "bySite": {"-": 2, "Checked Baggage": 824, "Checkpoint": 277, "Other": 7}}, {"code": "IND", "name": "INDIANAPOLIS INTERNATIONAL", "city": "INDIANAPOLIS", "lat": 39.717, "lon": -86.294, "claims": 1085, "byType": {"-": 2, "Employee Loss (MPCECA)": 3, "Passenger Property Loss": 493, "Personal Injury": 9, "Property Damage": 525}, "bySite": {"-": 1, "Checked Baggage": 851, "Checkpoint": 220, "Other": 9}}, {"code": "BDL", "name": "BRADLEY INTERNATIONAL", "city": "WINDSOR LOCKS", "lat": 41.939, "lon": -72.683, "claims": 1050, "byType": {"Complaint": 1, "Employee Loss (MPCECA)": 6, "Passenger Property Loss": 571, "Personal Injury": 5, "Property Damage": 432}, "bySite": {"-": 1, "Checked Baggage": 797, "Checkpoint": 241, "Motor Vehicle": 1, "Other": 5}}, {"code": "AUS", "name": "AUSTIN BERGSTROM INTERNATIONAL", "city": "AUSTIN", "lat": 30.194, "lon": -97.67, "claims": 991, "byType": {"Motor Vehicle": 1, "Passenger Property Loss": 543, "Passenger Theft": 1, "Personal Injury": 8, "Property Damage": 409}, "bySite": {"-": 1, "Checked Baggage": 789, "Checkpoint": 192, "Motor Vehicle": 2, "Other": 7}}, {"code": "SAT", "name": "SAN ANTONIO INTERNATIONAL", "city": "SAN ANTONIO", "lat": 29.534, "lon": -98.47, "claims": 983, "byType": {"-": 2, "Passenger Property Loss": 591, "Passenger Theft": 2, "Personal Injury": 12, "Property Damage": 338}, "bySite": {"-": 1, "Checked Baggage": 775, "Checkpoint": 195, "Other": 11}}, {"code": "ALB", "name": "ALBANY INTERNATIONAL", "city": "ALBANY", "lat": 42.748, "lon": -73.803, "claims": 948, "byType": {"-": 1, "Employee Loss (MPCECA)": 1, "Passenger Property Loss": 528, "Passenger Theft": 3, "Personal Injury": 2, "Property Damage": 375}, "bySite": {"Bus Station": 1, "Checked Baggage": 821, "Checkpoint": 122, "Other": 4}}, {"code": "ABQ", "name": "ALBUQUERQUE INTERNATIONAL SUNPORT", "city": "KIRTLAND A.F.B.", "lat": 35.04, "lon": -106.609, "claims": 936, "byType": {"-": 1, "Complaint": 1, "Employee Loss (MPCECA)": 1, "Passenger Property Loss": 510, "Passenger Theft": 6, "Personal Injury": 4, "Property Damage": 388}, "bySite": {"-": 1, "Checked Baggage": 771, "Checkpoint": 159, "Other": 5}}, {"code": "MEM", "name": "MEMPHIS INTERNATIONAL", "city": "MEMPHIS", "lat": 35.042, "lon": -89.977, "claims": 874, "byType": {"Employee Loss (MPCECA)": 2, "Passenger Property Loss": 508, "Passenger Theft": 3, "Personal Injury": 4, "Property Damage": 335}, "bySite": {"Checked Baggage": 695, "Checkpoint": 171, "Other": 5}}, {"code": "ONT", "name": "ONTARIO INTERNATIONAL", "city": "ONTARIO", "lat": 34.056, "lon": -117.601, "claims": 850, "byType": {"-": 2, "Employee Loss (MPCECA)": 4, "Passenger Property Loss": 478, "Passenger Theft": 2, "Personal Injury": 13, "Property Damage": 332}, "bySite": {"Checked Baggage": 626, "Checkpoint": 213, "Other": 7}}, {"code": "RNO", "name": "RENO TAHOE INTERNATIONAL", "city": "RENO", "lat": 39.498, "lon": -119.768, "claims": 833, "byType": {"Complaint": 1, "Passenger Property Loss": 490, "Passenger Theft": 1, "Personal Injury": 9, "Property Damage": 310}, "bySite": {"Checked Baggage": 628, "Checkpoint": 192, "Motor Vehicle": 1, "Other": 12}}, {"code": "BUF", "name": "BUFFALO NIAGARA INTERNATIONAL", "city": "BUFFALO", "lat": 42.94, "lon": -78.732, "claims": 808, "byType": {"-": 1, "Employee Loss (MPCECA)": 1, "Motor Vehicle": 1, "Passenger Property Loss": 421, "Passenger Theft": 1, "Personal Injury": 7, "Property Damage": 358}, "bySite": {"-": 1, "Checked Baggage": 676, "Checkpoint": 125, "Motor Vehicle": 1, "Other": 4}}, {"code": "GEG", "name": "SPOKANE INTERNATIONAL", "city": "SPOKANE", "lat": 47.62, "lon": -117.534, "claims": 796, "byType": {"Employee Loss (MPCECA)": 4, "Passenger Property Loss": 432, "Passenger Theft": 1, "Personal Injury": 6, "Property Damage": 321}, "bySite": {"-": 1, "Checked Baggage": 683, "Checkpoint": 106, "Other": 6}}, {"code": "ORF", "name": "NORFOLK INTERNATIONAL", "city": "NORFOLK", "lat": 36.894, "lon": -76.201, "claims": 796, "byType": {"Employee Loss (MPCECA)": 5, "Passenger Property Loss": 454, "Passenger Theft": 2, "Personal Injury": 7, "Property Damage": 297}, "bySite": {"Checked Baggage": 636, "Checkpoint": 153, "Other": 7}}, {"code": "OMA", "name": "EPPLEY AFLD", "city": "OMAHA", "lat": 41.302, "lon": -95.894, "claims": 780, "byType": {"Complaint": 1, "Passenger Property Loss": 462, "Passenger Theft": 2, "Personal Injury": 4, "Property Damage": 295}, "bySite": {"-": 1, "Checked Baggage": 641, "Checkpoint": 133, "Other": 5}}, {"code": "MKE", "name": "GENERAL MITCHELL INTERNATIONAL", "city": "MILWAUKEE", "lat": 42.947, "lon": -87.896, "claims": 779, "byType": {"Employee Loss (MPCECA)": 4, "Motor Vehicle": 1, "Passenger Property Loss": 429, "Personal Injury": 5, "Property Damage": 319}, "bySite": {"Checked Baggage": 618, "Checkpoint": 150, "Motor Vehicle": 2, "Other": 9}}, {"code": "CMH", "name": "PORT COLUMBUS INTERNATIONAL", "city": "COLUMBUS", "lat": 39.998, "lon": -82.892, "claims": 765, "byType": {"-": 1, "Employee Loss (MPCECA)": 3, "Passenger Property Loss": 444, "Personal Injury": 9, "Property Damage": 295}, "bySite": {"-": 2, "Checked Baggage": 537, "Checkpoint": 219, "Other": 6}}, {"code": "TUS", "name": "TUCSON INTERNATIONAL", "city": "TUCSON", "lat": 32.116, "lon": -110.941, "claims": 763, "byType": {"Employee Loss (MPCECA)": 1, "Passenger Property Loss": 388, "Passenger Theft": 1, "Personal Injury": 3, "Property Damage": 346}, "bySite": {"Checked Baggage": 652, "Checkpoint": 107, "Other": 4}}, {"code": "JAX", "name": "JACKSONVILLE INTERNATIONAL", "city": "JACKSONVILLE", "lat": 30.494, "lon": -81.688, "claims": 762, "byType": {"Employee Loss (MPCECA)": 1, "Passenger Property Loss": 422, "Passenger Theft": 5, "Personal Injury": 11, "Property Damage": 292}, "bySite": {"Checked Baggage": 593, "Checkpoint": 162, "Other": 7}}, {"code": "COS", "name": "CITY OF COLORADO SPRINGS MUNI", "city": "COLORADO SPRINGS", "lat": 38.806, "lon": -104.7, "claims": 701, "byType": {"Employee Loss (MPCECA)": 3, "Passenger Property Loss": 435, "Passenger Theft": 1, "Personal Injury": 2, "Property Damage": 251}, "bySite": {"Checked Baggage": 603, "Checkpoint": 90, "Other": 4}}, {"code": "PVD", "name": "THEODORE FRANCIS GREEN STATE", "city": "PROVIDENCE", "lat": 41.724, "lon": -71.428, "claims": 685, "byType": {"Passenger Property Loss": 313, "Passenger Theft": 3, "Personal Injury": 5, "Property Damage": 342}, "bySite": {"-": 2, "Checked Baggage": 480, "Checkpoint": 192, "Other": 11}}, {"code": "RIC", "name": "RICHMOND INTERNATIONAL", "city": "RICHMOND", "lat": 37.505, "lon": -77.319, "claims": 654, "byType": {"Complaint": 1, "Employee Loss (MPCECA)": 3, "Passenger Property Loss": 406, "Passenger Theft": 1, "Personal Injury": 5, "Property Damage": 213}, "bySite": {"Checked Baggage": 579, "Checkpoint": 73, "Other": 1}}, {"code": "BUR", "name": "BURBANK GLENDALE PASADENA", "city": "BURBANK", "lat": 34.201, "lon": -118.359, "claims": 642, "byType": {"Complaint": 1, "Employee Loss (MPCECA)": 1, "Passenger Property Loss": 390, "Personal Injury": 8, "Property Damage": 231}, "bySite": {"-": 1, "Checked Baggage": 462, "Checkpoint": 168, "Other": 11}}, {"code": "LGB", "name": "LONG BEACH", "city": "LONG BEACH", "lat": 33.818, "lon": -118.151, "claims": 619, "byType": {"-": 1, "Passenger Property Loss": 365, "Property Damage": 221}, "bySite": {"-": 1, "Checked Baggage": 501, "Checkpoint": 111, "Other": 4}}, {"code": "DAL", "name": "DALLAS LOVE FLD", "city": "DALLAS", "lat": 32.847, "lon": -96.852, "claims": 613, "byType": {"Employee Loss (MPCECA)": 1, "Passenger Property Loss": 329, "Passenger Theft": 3, "Personal Injury": 10, "Property Damage": 256}, "bySite": {"-": 1, "Checked Baggage": 439, "Checkpoint": 170}}, {"code": "ELP", "name": "EL PASO INTERNATIONAL", "city": "EL PASO", "lat": 31.807, "lon": -106.378, "claims": 612, "byType": {"-": 1, "Employee Loss (MPCECA)": 2, "Passenger Property Loss": 343, "Passenger Theft": 6, "Personal Injury": 3, "Property Damage": 226}, "bySite": {"-": 1, "Checked Baggage": 519, "Checkpoint": 87, "Other": 2}}, {"code": "OKC", "name": "WILL ROGERS WORLD", "city": "OKLAHOMA CITY", "lat": 35.393, "lon": -97.601, "claims": 480, "byType": {"Employee Loss (MPCECA)": 2, "Motor Vehicle": 2, "Passenger Property Loss": 260, "Passenger Theft": 1, "Personal Injury": 6, "Property Damage": 200}, "bySite": {"-": 1, "Checked Baggage": 345, "Checkpoint": 126, "Motor Vehicle": 1, "Other": 6}}, {"code": "SYR", "name": "SYRACUSE HANCOCK INTERNATIONAL", "city": "SYRACUSE", "lat": 43.111, "lon": -76.106, "claims": 475, "byType": {"Bus Terminal": 1, "Employee Loss (MPCECA)": 3, "Passenger Property Loss": 266, "Passenger Theft": 2, "Property Damage": 186}, "bySite": {"Checked Baggage": 388, "Checkpoint": 83, "Other": 3}}, {"code": "TUL", "name": "TULSA INTERNATIONAL", "city": "TULSA", "lat": 36.198, "lon": -95.888, "claims": 446, "byType": {"Passenger Property Loss": 221, "Personal Injury": 2, "Property Damage": 203}, "bySite": {"Checked Baggage": 355, "Checkpoint": 87, "Other": 4}}, {"code": "PSP", "name": "PALM SPRINGS INTERNATIONAL", "city": "PALM SPRINGS", "lat": 33.829, "lon": -116.507, "claims": 413, "byType": {"Employee Loss (MPCECA)": 1, "Passenger Property Loss": 242, "Personal Injury": 1, "Property Damage": 160}, "bySite": {"Checked Baggage": 355, "Checkpoint": 57}}, {"code": "SAV", "name": "SAVANNAH HILTON HEAD INTERNATIONAL", "city": "SAVANNAH", "lat": 32.127, "lon": -81.202, "claims": 404, "byType": {"Employee Loss (MPCECA)": 1, "Motor Vehicle": 1, "Passenger Property Loss": 230, "Passenger Theft": 1, "Personal Injury": 2, "Property Damage": 162}, "bySite": {"Checked Baggage": 346, "Checkpoint": 56, "Other": 1}}, {"code": "MCI", "name": "KANSAS CITY INTERNATIONAL", "city": "KANSAS CITY", "lat": 39.297, "lon": -94.714, "claims": 390, "byType": {"Employee Loss (MPCECA)": 4, "Passenger Property Loss": 253, "Personal Injury": 1, "Property Damage": 126}, "bySite": {"Checked Baggage": 316, "Checkpoint": 72, "Other": 1}}, {"code": "BOI", "name": "BOISE AIR TERMINAL", "city": "BOISE", "lat": 43.564, "lon": -116.223, "claims": 374, "byType": {"Motor Vehicle": 2, "Passenger Property Loss": 213, "Personal Injury": 2, "Property Damage": 139}, "bySite": {"Checked Baggage": 297, "Checkpoint": 68, "Motor Vehicle": 2, "Other": 7}}, {"code": "CHS", "name": "CHARLESTON AFB INTERNATIONAL", "city": "CHARLESTON", "lat": 32.899, "lon": -80.04, "claims": 346, "byType": {"Passenger Property Loss": 208, "Personal Injury": 3, "Property Damage": 130}, "bySite": {"-": 2, "Checked Baggage": 284, "Checkpoint": 58, "Other": 2}}, {"code": "ISP", "name": "LONG ISLAND MAC ARTHUR", "city": "ISLIP", "lat": 40.795, "lon": -73.1, "claims": 345, "byType": {"-": 1, "Complaint": 1, "Employee Loss (MPCECA)": 1, "Passenger Property Loss": 188, "Personal Injury": 3, "Property Damage": 147}, "bySite": {"Checked Baggage": 242, "Checkpoint": 100, "Other": 2}}, {"code": "LIT", "name": "ADAMS FLD", "city": "LITTLE ROCK", "lat": 34.729, "lon": -92.224, "claims": 333, "byType": {"Employee Loss (MPCECA)": 1, "Motor Vehicle": 2, "Passenger Property Loss": 181, "Personal Injury": 3, "Property Damage": 138}, "bySite": {"Checked Baggage": 245, "Checkpoint": 85, "Motor Vehicle": 2}}, {"code": "BTV", "name": "BURLINGTON INTERNATIONAL", "city": "BURLINGTON", "lat": 44.472, "lon": -73.153, "claims": 326, "byType": {"-": 1, "Employee Loss (MPCECA)": 1, "Motor Vehicle": 1, "Passenger Property Loss": 213, "Personal Injury": 1, "Property Damage": 104}, "bySite": {"Checked Baggage": 281, "Checkpoint": 44}}, {"code": "MSN", "name": "DANE CO RGNL TRUAX FLD", "city": "MADISON", "lat": 43.14, "lon": -89.337, "claims": 324, "byType": {"-": 1, "Motor Vehicle": 1, "Passenger Property Loss": 198, "Personal Injury": 2, "Property Damage": 115}, "bySite": {"Checked Baggage": 290, "Checkpoint": 31, "Motor Vehicle": 1, "Other": 1}}, {"code": "BHM", "name": "BIRMINGHAM INTERNATIONAL", "city": "BIRMINGHAM", "lat": 33.563, "lon": -86.753, "claims": 322, "byType": {"Passenger Property Loss": 157, "Passenger Theft": 1, "Personal Injury": 3, "Property Damage": 151}, "bySite": {"Checked Baggage": 234, "Checkpoint": 82, "Other": 4}}, {"code": "PWM", "name": "PORTLAND INTERNATIONAL JETPORT", "city": "PORTLAND", "lat": 43.646, "lon": -70.309, "claims": 311, "byType": {"Complaint": 1, "Employee Loss (MPCECA)": 2, "Motor Vehicle": 1, "Passenger Property Loss": 147, "Passenger Theft": 2, "Personal Injury": 2, "Property Damage": 144}, "bySite": {"Checked Baggage": 229, "Checkpoint": 75, "Motor Vehicle": 1, "Other": 6}}, {"code": "DAY", "name": "JAMES M COX DAYTON INTERNATIONAL", "city": "DAYTON", "lat": 39.902, "lon": -84.219, "claims": 307, "byType": {"Passenger Property Loss": 173, "Personal Injury": 2, "Property Damage": 130}, "bySite": {"Checked Baggage": 230, "Checkpoint": 75, "Other": 2}}, {"code": "DSM", "name": "DES MOINES INTERNATIONAL", "city": "DES MOINES", "lat": 41.534, "lon": -93.663, "claims": 290, "byType": {"Employee Loss (MPCECA)": 1, "Passenger Property Loss": 160, "Personal Injury": 2, "Property Damage": 112}, "bySite": {"Checked Baggage": 239, "Checkpoint": 50, "Other": 1}}, {"code": "ICT", "name": "WICHITA MID CONTINENT", "city": "WICHITA", "lat": 37.65, "lon": -97.433, "claims": 290, "byType": {"Employee Loss (MPCECA)": 3, "Motor Vehicle": 1, "Passenger Property Loss": 180, "Passenger Theft": 2, "Personal Injury": 2, "Property Damage": 97}, "bySite": {"Checked Baggage": 244, "Checkpoint": 43, "Motor Vehicle": 1, "Other": 1}}, {"code": "MYR", "name": "MYRTLE BEACH INTERNATIONAL", "city": "MYRTLE BEACH", "lat": 33.68, "lon": -78.928, "claims": 281, "byType": {"Passenger Property Loss": 164, "Personal Injury": 4, "Property Damage": 109}, "bySite": {"Checked Baggage": 212, "Checkpoint": 68, "Other": 1}}, {"code": "GRR", "name": "GERALD R FORD INTERNATIONAL", "city": "GRAND RAPIDS", "lat": 42.881, "lon": -85.523, "claims": 276, "byType": {"-": 1, "Employee Loss (MPCECA)": 2, "Passenger Property Loss": 143, "Personal Injury": 2, "Property Damage": 122}, "bySite": {"-": 1, "Bus Station": 1, "Checked Baggage": 202, "Checkpoint": 70, "Other": 1}}, {"code": "PNS", "name": "PENSACOLA RGNL", "city": "PENSACOLA", "lat": 30.473, "lon": -87.187, "claims": 241, "byType": {"Passenger Property Loss": 141, "Personal Injury": 1, "Property Damage": 98}, "bySite": {"Checked Baggage": 173, "Checkpoint": 68}}, {"code": "FAT", "name": "FRESNO YOSEMITE INTERNATIONAL", "city": "FRESNO", "lat": 36.776, "lon": -119.718, "claims": 226, "byType": {"-": 1, "Passenger Property Loss": 152, "Property Damage": 69}, "bySite": {"-": 1, "Checked Baggage": 187, "Checkpoint": 35, "Other": 2}}, {"code": "JAN", "name": "JACKSON INTERNATIONAL", "city": "JACKSON", "lat": 32.311, "lon": -90.076, "claims": 221, "byType": {"Passenger Property Loss": 125, "Passenger Theft": 2, "Personal Injury": 3, "Property Damage": 87, "Wrongful Death": 2}, "bySite": {"Checked Baggage": 154, "Checkpoint": 65, "Other": 2}}, {"code": "PIE", "name": "ST PETERSBURG CLEARWATER INTERNATIONAL", "city": "ST. PETERSBURG", "lat": 27.911, "lon": -82.687, "claims": 199, "byType": {"Employee Loss (MPCECA)": 1, "Motor Vehicle": 2, "Passenger Property Loss": 117, "Passenger Theft": 1, "Property Damage": 69}, "bySite": {"Checked Baggage": 144, "Checkpoint": 52, "Motor Vehicle": 2, "Other": 1}}, {"code": "MDT", "name": "HARRISBURG INTERNATIONAL", "city": "HARRISBURG", "lat": 40.193, "lon": -76.763, "claims": 198, "byType": {"Motor Vehicle": 1, "Passenger Property Loss": 101, "Property Damage": 89}, "bySite": {"Checked Baggage": 160, "Checkpoint": 31, "Other": 7}}, {"code": "ROC", "name": "GREATER ROCHESTER INTERNATIONAL", "city": "ROCHESTER", "lat": 43.119, "lon": -77.672, "claims": 198, "byType": {"Employee Loss (MPCECA)": 1, "Passenger Property Loss": 107, "Passenger Theft": 2, "Personal Injury": 1, "Property Damage": 82}, "bySite": {"Checked Baggage": 162, "Checkpoint": 32, "Motor Vehicle": 1, "Other": 2}}, {"code": "SWF", "name": "STEWART INTERNATIONAL", "city": "NEWBURGH", "lat": 41.504, "lon": -74.105, "claims": 193, "byType": {"Employee Loss (MPCECA)": 1, "Passenger Property Loss": 111, "Passenger Theft": 2, "Personal Injury": 2, "Property Damage": 68}, "bySite": {"Checked Baggage": 171, "Checkpoint": 20, "Other": 2}}, {"code": "TYS", "name": "MC GHEE TYSON", "city": "KNOXVILLE", "lat": 35.812, "lon": -83.993, "claims": 183, "byType": {"Passenger Property Loss": 94, "Personal Injury": 3, "Property Damage": 85}, "bySite": {"Checked Baggage": 126, "Checkpoint": 56, "Other": 1}}, {"code": "PHF", "name": "NEWPORT NEWS WILLIAMSBURG INTERNATIONAL", "city": "NEWPORT NEWS", "lat": 37.132, "lon": -76.493, "claims": 180, "byType": {"Employee Loss (MPCECA)": 1, "Passenger Property Loss": 122, "Property Damage": 55}, "bySite": {"Checked Baggage": 143, "Checkpoint": 36}}, {"code": "HPN", "name": "WESTCHESTER CO", "city": "WHITE PLAINS", "lat": 41.067, "lon": -73.707, "claims": 170, "byType": {"Passenger Property Loss": 100, "Personal Injury": 6, "Property Damage": 61}, "bySite": {"-": 1, "Checked Baggage": 102, "Checkpoint": 65, "Other": 2}}, {"code": "SHV", "name": "SHREVEPORT RGNL", "city": "SHREVEPORT", "lat": 32.446, "lon": -93.826, "claims": 161, "byType": {"Employee Loss (MPCECA)": 1, "Passenger Property Loss": 88, "Personal Injury": 5, "Property Damage": 59}, "bySite": {"Checked Baggage": 130, "Checkpoint": 29, "Other": 2}}, {"code": "ACY", "name": "ATLANTIC CITY INTERNATIONAL", "city": "ATLANTIC CITY", "lat": 39.458, "lon": -74.577, "claims": 154, "byType": {"Motor Vehicle": 1, "Passenger Property Loss": 93, "Passenger Theft": 1, "Property Damage": 58}, "bySite": {"Checked Baggage": 98, "Checkpoint": 55, "Motor Vehicle": 1}}, {"code": "CRP", "name": "CORPUS CHRISTI INTERNATIONAL", "city": "CORPUS CHRISTI", "lat": 27.77, "lon": -97.501, "claims": 143, "byType": {"Passenger Property Loss": 93, "Passenger Theft": 1, "Personal Injury": 1, "Property Damage": 48}, "bySite": {"Checked Baggage": 116, "Checkpoint": 27}}, {"code": "CAE", "name": "COLUMBIA METROPOLITAN", "city": "COLOMBIA", "lat": 33.939, "lon": -81.119, "claims": 142, "byType": {"Passenger Property Loss": 89, "Personal Injury": 1, "Property Damage": 51}, "bySite": {"Checked Baggage": 108, "Checkpoint": 34}}, {"code": "ILM", "name": "WILMINGTON INTERNATIONAL", "city": "WILMINGTON", "lat": 34.271, "lon": -77.903, "claims": 135, "byType": {"Passenger Property Loss": 78, "Personal Injury": 1, "Property Damage": 55}, "bySite": {"Checked Baggage": 116, "Checkpoint": 18, "Other": 1}}, {"code": "LBB", "name": "LUBBOCK INTERNATIONAL", "city": "LUBBOCK", "lat": 33.664, "lon": -101.823, "claims": 135, "byType": {"Passenger Property Loss": 84, "Personal Injury": 2, "Property Damage": 48}, "bySite": {"-": 1, "Checked Baggage": 97, "Checkpoint": 37}}, {"code": "TLH", "name": "TALLAHASSEE RGNL", "city": "TALLAHASSEE", "lat": 30.396, "lon": -84.35, "claims": 125, "byType": {"Passenger Property Loss": 70, "Personal Injury": 1, "Property Damage": 52}, "bySite": {"Checked Baggage": 88, "Checkpoint": 37}}, {"code": "BTR", "name": "BATON ROUGE METRO RYAN FLD", "city": "BATON ROUGE", "lat": 30.533, "lon": -91.149, "claims": 121, "byType": {"Passenger Property Loss": 72, "Passenger Theft": 2, "Personal Injury": 2, "Property Damage": 45}, "bySite": {"Checked Baggage": 92, "Checkpoint": 27, "Motor Vehicle": 1, "Other": 1}}, {"code": "EYW", "name": "KEY WEST INTERNATIONAL", "city": "KEY WEST", "lat": 24.556, "lon": -81.759, "claims": 120, "byType": {"Employee Loss (MPCECA)": 1, "Passenger Property Loss": 78, "Property Damage": 39}, "bySite": {"Checked Baggage": 116, "Checkpoint": 4}}, {"code": "GRB", "name": "AUSTIN STRAUBEL INTERNATIONAL", "city": "GREEN BAY", "lat": 44.485, "lon": -88.129, "claims": 120, "byType": {"Passenger Property Loss": 56, "Property Damage": 64}, "bySite": {"Checked Baggage": 89, "Checkpoint": 29, "Other": 2}}, {"code": "VPS", "name": "EGLIN AFB", "city": "VALPARAISO", "lat": 30.483, "lon": -86.525, "claims": 118, "byType": {"-": 1, "Passenger Property Loss": 56, "Passenger Theft": 1, "Property Damage": 59}, "bySite": {"-": 1, "Checked Baggage": 82, "Checkpoint": 34}}, {"code": "GTF", "name": "GREAT FALLS INTERNATIONAL", "city": "GREAT FALLS", "lat": 47.482, "lon": -111.371, "claims": 110, "byType": {"Passenger Property Loss": 75, "Property Damage": 33}, "bySite": {"Checked Baggage": 94, "Checkpoint": 16}}, {"code": "AMA", "name": "AMARILLO INTERNATIONAL", "city": "AMARILLO", "lat": 35.219, "lon": -101.706, "claims": 103, "byType": {"Passenger Property Loss": 61, "Passenger Theft": 1, "Personal Injury": 1, "Property Damage": 39}, "bySite": {"Checked Baggage": 77, "Checkpoint": 26}}, {"code": "MOB", "name": "MOBILE RGNL", "city": "MOBILE", "lat": 30.691, "lon": -88.243, "claims": 97, "byType": {"Passenger Property Loss": 48, "Property Damage": 45}, "bySite": {"Checked Baggage": 69, "Checkpoint": 28}}, {"code": "HRL", "name": "VALLEY INTERNATIONAL", "city": "HARLINGEN", "lat": 26.228, "lon": -97.654, "claims": 96, "byType": {"Passenger Property Loss": 61, "Property Damage": 34}, "bySite": {"Checked Baggage": 72, "Checkpoint": 21, "Other": 2}}, {"code": "BLI", "name": "BELLINGHAM INTERNATIONAL", "city": "BELLINGHAM", "lat": 48.792, "lon": -122.537, "claims": 85, "byType": {"Passenger Property Loss": 53, "Personal Injury": 1, "Property Damage": 31}, "bySite": {"Checked Baggage": 66, "Checkpoint": 19}}, {"code": "DLH", "name": "DULUTH INTERNATIONAL", "city": "DULUTH", "lat": 46.842, "lon": -92.194, "claims": 83, "byType": {"Passenger Property Loss": 56, "Property Damage": 26}, "bySite": {"Checked Baggage": 75, "Checkpoint": 8}}, {"code": "MFE", "name": "MC ALLEN MILLER INTERNATIONAL", "city": "MCALLEN", "lat": 26.176, "lon": -98.239, "claims": 83, "byType": {"Employee Loss (MPCECA)": 1, "Passenger Property Loss": 48, "Passenger Theft": 1, "Property Damage": 29}, "bySite": {"Checked Baggage": 69, "Checkpoint": 14}}, {"code": "LNK", "name": "LINCOLN MUNI", "city": "LINCOLN", "lat": 40.851, "lon": -96.759, "claims": 78, "byType": {"Passenger Property Loss": 40, "Property Damage": 38}, "bySite": {"Checked Baggage": 68, "Checkpoint": 10}}, {"code": "MAF", "name": "MIDLAND INTERNATIONAL", "city": "MIDLAND", "lat": 31.942, "lon": -102.202, "claims": 74, "byType": {"Motor Vehicle": 1, "Passenger Property Loss": 35, "Personal Injury": 1, "Property Damage": 36}, "bySite": {"Checked Baggage": 53, "Checkpoint": 19, "Other": 1}}, {"code": "CHA", "name": "LOVELL FLD", "city": "CHATTANOOGA", "lat": 35.035, "lon": -85.204, "claims": 66, "byType": {"Passenger Property Loss": 30, "Personal Injury": 2, "Property Damage": 33}, "bySite": {"Checked Baggage": 51, "Checkpoint": 15}}, {"code": "SJT", "name": "SAN ANGELO RGNL MATHIS FLD", "city": "SAN ANGELO", "lat": 31.358, "lon": -100.496, "claims": 66, "byType": {"Passenger Property Loss": 44, "Property Damage": 21}, "bySite": {"Checked Baggage": 57, "Checkpoint": 9}}, {"code": "BFL", "name": "MEADOWS FLD", "city": "BAKERSFIELD", "lat": 35.433, "lon": -119.057, "claims": 62, "byType": {"Compliment": 1, "Passenger Property Loss": 40, "Personal Injury": 1, "Property Damage": 17}, "bySite": {"Checked Baggage": 43, "Checkpoint": 16, "Other": 2}}, {"code": "AEX", "name": "ALEXANDRIA INTERNATIONAL", "city": "ALEXANDRIA", "lat": 31.327, "lon": -92.548, "claims": 61, "byType": {"Passenger Property Loss": 41, "Property Damage": 20}, "bySite": {"Checked Baggage": 56, "Checkpoint": 5}}, {"code": "BGR", "name": "BANGOR INTERNATIONAL", "city": "BANGOR", "lat": 44.807, "lon": -68.828, "claims": 61, "byType": {"Passenger Property Loss": 42, "Property Damage": 19}, "bySite": {"Checked Baggage": 55, "Checkpoint": 6}}, {"code": "LAN", "name": "CAPITAL CITY", "city": "LANSING", "lat": 42.779, "lon": -84.587, "claims": 60, "byType": {"Passenger Property Loss": 35, "Property Damage": 24}, "bySite": {"Checked Baggage": 49, "Checkpoint": 11}}, {"code": "GRK", "name": "ROBERT GRAY AAF", "city": "KILLEEN", "lat": 31.067, "lon": -97.829, "claims": 58, "byType": {"Employee Loss (MPCECA)": 1, "Passenger Property Loss": 35, "Property Damage": 22}, "bySite": {"Checked Baggage": 49, "Checkpoint": 9}}, {"code": "AGS", "name": "AUGUSTA RGNL AT BUSH FLD", "city": "BUSH FIELD", "lat": 33.37, "lon": -81.964, "claims": 57, "byType": {"Passenger Property Loss": 39, "Personal Injury": 2, "Property Damage": 16}, "bySite": {"Checked Baggage": 47, "Checkpoint": 10}}, {"code": "LFT", "name": "LAFAYETTE RGNL", "city": "LAFAYETTE", "lat": 30.205, "lon": -91.987, "claims": 57, "byType": {"Passenger Property Loss": 40, "Property Damage": 17}, "bySite": {"Checked Baggage": 48, "Checkpoint": 9}}, {"code": "TYR", "name": "TYLER POUNDS RGNL", "city": "TYLER", "lat": 32.354, "lon": -95.402, "claims": 54, "byType": {"Passenger Property Loss": 35, "Property Damage": 19}, "bySite": {"Checked Baggage": 52, "Checkpoint": 2}}, {"code": "CPR", "name": "NATRONA CO INTERNATIONAL", "city": "CASPER", "lat": 42.908, "lon": -106.464, "claims": 53, "byType": {"Motor Vehicle": 1, "Passenger Property Loss": 34, "Property Damage": 17}, "bySite": {"Checked Baggage": 43, "Checkpoint": 9, "Motor Vehicle": 1}}, {"code": "EWN", "name": "CRAVEN CO RGNL", "city": "NEW BERN", "lat": 35.073, "lon": -77.043, "claims": 53, "byType": {"Passenger Property Loss": 31, "Property Damage": 22}, "bySite": {"Checked Baggage": 46, "Checkpoint": 7}}, {"code": "HLN", "name": "HELENA RGNL", "city": "HELENA", "lat": 46.607, "lon": -111.983, "claims": 52, "byType": {"Passenger Property Loss": 33, "Property Damage": 18}, "bySite": {"Checked Baggage": 47, "Checkpoint": 5}}, {"code": "MLB", "name": "MELBOURNE INTERNATIONAL", "city": "MELBOURNE", "lat": 28.103, "lon": -80.645, "claims": 49, "byType": {"Passenger Property Loss": 24, "Property Damage": 25}, "bySite": {"Checked Baggage": 36, "Checkpoint": 13}}, {"code": "ABI", "name": "ABILENE RGNL", "city": "ABILENE", "lat": 32.411, "lon": -99.682, "claims": 46, "byType": {"-": 1, "Employee Loss (MPCECA)": 1, "Passenger Property Loss": 24, "Property Damage": 19}, "bySite": {"Checked Baggage": 37, "Checkpoint": 9}}, {"code": "CLL", "name": "EASTERWOOD FLD", "city": "COLLEGE STATION", "lat": 30.588, "lon": -96.364, "claims": 43, "byType": {"Passenger Property Loss": 23, "Property Damage": 19}, "bySite": {"Checked Baggage": 37, "Checkpoint": 5, "Other": 1}}, {"code": "GNV", "name": "GAINESVILLE RGNL", "city": "GAINESVILLE", "lat": 29.69, "lon": -82.272, "claims": 41, "byType": {"Passenger Property Loss": 30, "Property Damage": 11}, "bySite": {"Checked Baggage": 33, "Checkpoint": 8}}, {"code": "MLU", "name": "MONROE RGNL", "city": "MONROE", "lat": 32.511, "lon": -92.037, "claims": 37, "byType": {"Passenger Property Loss": 24, "Personal Injury": 1, "Property Damage": 12}, "bySite": {"Checked Baggage": 29, "Checkpoint": 8}}, {"code": "FSM", "name": "FORT SMITH RGNL", "city": "FORT SMITH", "lat": 35.336, "lon": -94.367, "claims": 36, "byType": {"Passenger Property Loss": 17, "Property Damage": 18}, "bySite": {"Checked Baggage": 31, "Checkpoint": 4, "Other": 1}}, {"code": "INL", "name": "FALLS INTERNATIONAL", "city": "INTERNATIONAL FALLS", "lat": 48.566, "lon": -93.403, "claims": 36, "byType": {"Passenger Property Loss": 19, "Property Damage": 17}, "bySite": {"Checked Baggage": 36}}, {"code": "SAF", "name": "SANTA FE MUNI", "city": "SANTA FE", "lat": 35.617, "lon": -106.088, "claims": 34, "byType": {"-": 1, "Passenger Property Loss": 24, "Property Damage": 9}, "bySite": {"-": 1, "Checked Baggage": 31, "Checkpoint": 2}}, {"code": "ACT", "name": "WACO RGNL", "city": "WACO", "lat": 31.611, "lon": -97.23, "claims": 33, "byType": {"-": 1, "Passenger Property Loss": 21, "Property Damage": 11}, "bySite": {"-": 1, "Checked Baggage": 30, "Checkpoint": 2}}, {"code": "FOE", "name": "FORBES FLD", "city": "TOPEKA", "lat": 38.951, "lon": -95.664, "claims": 32, "byType": {"Passenger Property Loss": 12, "Property Damage": 13}, "bySite": {"Checked Baggage": 28, "Checkpoint": 4}}, {"code": "YUM", "name": "YUMA MCAS YUMA INTERNATIONAL", "city": "YUMA", "lat": 32.656, "lon": -114.606, "claims": 32, "byType": {"Passenger Property Loss": 22, "Property Damage": 10}, "bySite": {"Checked Baggage": 29, "Checkpoint": 3}}, {"code": "IAG", "name": "NIAGARA FALLS INTERNATIONAL", "city": "NIAGARA FALLS", "lat": 43.107, "lon": -78.946, "claims": 31, "byType": {"Passenger Property Loss": 19, "Property Damage": 12}, "bySite": {"Checked Baggage": 25, "Checkpoint": 6}}, {"code": "SUX", "name": "SIOUX GATEWAY COL BUD DAY FLD", "city": "SIOUX CITY", "lat": 42.402, "lon": -96.384, "claims": 29, "byType": {"Passenger Property Loss": 13, "Personal Injury": 1, "Property Damage": 12}, "bySite": {"Checked Baggage": 25, "Checkpoint": 4}}, {"code": "ACK", "name": "NANTUCKET MEM", "city": "NANTUCKET", "lat": 41.253, "lon": -70.06, "claims": 28, "byType": {"Passenger Property Loss": 19, "Property Damage": 9}, "bySite": {"Checked Baggage": 24, "Checkpoint": 4}}, {"code": "DHN", "name": "DOTHAN RGNL", "city": "DOTHAN", "lat": 31.321, "lon": -85.449, "claims": 28, "byType": {"Passenger Property Loss": 15, "Property Damage": 13}, "bySite": {"Checked Baggage": 24, "Checkpoint": 4}}, {"code": "GFK", "name": "GRAND FORKS INTERNATIONAL", "city": "GRAND FORKS", "lat": 47.949, "lon": -97.176, "claims": 26, "byType": {"Passenger Property Loss": 16, "Property Damage": 10}, "bySite": {"Checked Baggage": 20, "Checkpoint": 6}}, {"code": "DRO", "name": "DURANGO LA PLATA CO", "city": "DURANGO", "lat": 37.151, "lon": -107.754, "claims": 24, "byType": {"Passenger Property Loss": 16, "Property Damage": 8}, "bySite": {"Checked Baggage": 20, "Checkpoint": 4}}, {"code": "YNG", "name": "YOUNGSTOWN WARREN RGNL", "city": "YOUNGSTOWN", "lat": 41.261, "lon": -80.679, "claims": 24, "byType": {"Passenger Property Loss": 15, "Property Damage": 9}, "bySite": {"Checked Baggage": 22, "Checkpoint": 2}}, {"code": "SCK", "name": "STOCKTON METROPOLITAN", "city": "STOCKTON", "lat": 37.894, "lon": -121.239, "claims": 23, "byType": {"Passenger Property Loss": 18, "Property Damage": 5}, "bySite": {"Checked Baggage": 20, "Checkpoint": 3}}, {"code": "COU", "name": "COLUMBIA RGNL", "city": "COLUMBIA", "lat": 38.818, "lon": -92.219, "claims": 22, "byType": {"Passenger Property Loss": 18, "Property Damage": 4}, "bySite": {"Checked Baggage": 20, "Checkpoint": 2}}, {"code": "GGG", "name": "EAST TEXAS RGNL", "city": "LONGVIEW", "lat": 32.385, "lon": -94.711, "claims": 22, "byType": {"Passenger Property Loss": 14, "Property Damage": 8}, "bySite": {"Checked Baggage": 21, "Checkpoint": 1}}, {"code": "LCH", "name": "LAKE CHARLES RGNL", "city": "LAKE CHARLES", "lat": 30.126, "lon": -93.223, "claims": 21, "byType": {"Passenger Property Loss": 12, "Property Damage": 9}, "bySite": {"Checked Baggage": 18, "Checkpoint": 3}}, {"code": "ENV", "name": "WENDOVER", "city": "WENDOVER", "lat": 40.719, "lon": -114.031, "claims": 19, "byType": {"Passenger Property Loss": 9, "Personal Injury": 1, "Property Damage": 9}, "bySite": {"-": 1, "Checked Baggage": 16, "Checkpoint": 2}}, {"code": "LRD", "name": "LAREDO INTERNATIONAL", "city": "LAREDO", "lat": 27.544, "lon": -99.461, "claims": 19, "byType": {"Passenger Property Loss": 11, "Property Damage": 8}, "bySite": {"Checked Baggage": 15, "Checkpoint": 4}}, {"code": "TXK", "name": "TEXARKANA RGNL WEBB FLD", "city": "TEXARKANA", "lat": 33.454, "lon": -93.991, "claims": 19, "byType": {"Passenger Property Loss": 12, "Property Damage": 6}, "bySite": {"Checked Baggage": 17, "Checkpoint": 2}}, {"code": "TTN", "name": "TRENTON MERCER", "city": "TRENTON", "lat": 40.277, "lon": -74.813, "claims": 18, "byType": {"Passenger Property Loss": 10, "Property Damage": 8}, "bySite": {"Checked Baggage": 14, "Checkpoint": 4}}, {"code": "BPT", "name": "SOUTHEAST TEXAS RGNL", "city": "BEAUMONT", "lat": 29.951, "lon": -94.021, "claims": 17, "byType": {"Passenger Property Loss": 10, "Property Damage": 7}, "bySite": {"Checked Baggage": 15, "Checkpoint": 2}}, {"code": "FLO", "name": "FLORENCE RGNL", "city": "FLORENCE", "lat": 34.185, "lon": -79.724, "claims": 17, "byType": {"Passenger Property Loss": 10, "Property Damage": 7}, "bySite": {"Checked Baggage": 13, "Checkpoint": 4}}, {"code": "PBG", "name": "PLATTSBURGH INTERNATIONAL", "city": "PLATTSBURGH", "lat": 44.651, "lon": -73.468, "claims": 16, "byType": {"Passenger Property Loss": 8, "Property Damage": 8}, "bySite": {"Checked Baggage": 11, "Checkpoint": 5}}, {"code": "MOT", "name": "MINOT INTERNATIONAL", "city": "MINOT", "lat": 48.259, "lon": -101.28, "claims": 15, "byType": {"Passenger Property Loss": 6, "Property Damage": 9}, "bySite": {"Checked Baggage": 12, "Checkpoint": 3}}, {"code": "IPT", "name": "WILLIAMSPORT RGNL", "city": "WILLIAMSPORT", "lat": 41.242, "lon": -76.921, "claims": 14, "byType": {"Passenger Property Loss": 8, "Property Damage": 6}, "bySite": {"Checked Baggage": 11, "Checkpoint": 3}}, {"code": "MOD", "name": "MODESTO CITY CO HARRY SHAM", "city": "MODESTO", "lat": 37.626, "lon": -120.954, "claims": 14, "byType": {"Passenger Property Loss": 12, "Property Damage": 2}, "bySite": {"Checked Baggage": 13, "Checkpoint": 1}}, {"code": "BRO", "name": "BROWNSVILLE SOUTH PADRE ISLAND INTERNATIONAL", "city": "BROWNSVILLE", "lat": 25.907, "lon": -97.426, "claims": 13, "byType": {"Passenger Property Loss": 6, "Property Damage": 7}, "bySite": {"Checked Baggage": 9, "Checkpoint": 4}}, {"code": "CIC", "name": "CHICO MUNI", "city": "CHICO", "lat": 39.795, "lon": -121.858, "claims": 13, "byType": {"Passenger Property Loss": 10, "Property Damage": 3}, "bySite": {"Checked Baggage": 12, "Checkpoint": 1}}, {"code": "SPS", "name": "SHEPPARD AFB WICHITA FALLS MUNI", "city": "WICHITA FALLS", "lat": 33.989, "lon": -98.492, "claims": 13, "byType": {"Passenger Property Loss": 9, "Property Damage": 3}, "bySite": {"Checked Baggage": 10, "Checkpoint": 2, "Other": 1}}, {"code": "CYS", "name": "CHEYENNE", "city": "CHEYENNE", "lat": 41.156, "lon": -104.812, "claims": 10, "byType": {"Passenger Property Loss": 8, "Property Damage": 2}, "bySite": {"Checked Baggage": 9, "Checkpoint": 1}}, {"code": "FOD", "name": "FORT DODGE RGNL", "city": "FORT DODGE", "lat": 42.551, "lon": -94.193, "claims": 10, "byType": {"Passenger Property Loss": 4, "Property Damage": 4}, "bySite": {"Checked Baggage": 9, "Checkpoint": 1}}, {"code": "BLV", "name": "SCOTT AFB MIDAMERICA", "city": "BELLEVILLE", "lat": 38.545, "lon": -89.835, "claims": 9, "byType": {"Passenger Property Loss": 5, "Property Damage": 4}, "bySite": {"Checked Baggage": 7, "Checkpoint": 2}}, {"code": "ILG", "name": "NEW CASTLE CO", "city": "WILMINGTON", "lat": 39.679, "lon": -75.606, "claims": 9, "byType": {"Complaint": 1, "Passenger Property Loss": 2, "Property Damage": 6}, "bySite": {"Checked Baggage": 8, "Checkpoint": 1}}, {"code": "LCK", "name": "RICKENBACKER INTERNATIONAL", "city": "COLUMBUS", "lat": 39.814, "lon": -82.928, "claims": 9, "byType": {"Passenger Property Loss": 7, "Property Damage": 2}, "bySite": {"Checked Baggage": 9}}, {"code": "MCN", "name": "MIDDLE GEORGIA RGNL", "city": "MACON", "lat": 32.693, "lon": -83.649, "claims": 9, "byType": {"Passenger Property Loss": 4, "Property Damage": 5}, "bySite": {"Checked Baggage": 8, "Checkpoint": 1}}, {"code": "SBY", "name": "SALISBURY OCEAN CITY WICOMICO RGNL", "city": "SALISBURY", "lat": 38.34, "lon": -75.51, "claims": 9, "byType": {"Passenger Property Loss": 6, "Property Damage": 3}, "bySite": {"Checked Baggage": 9}}, {"code": "GCK", "name": "GARDEN CITY RGNL", "city": "GARDEN CITY", "lat": 37.927, "lon": -100.724, "claims": 8, "byType": {"Passenger Property Loss": 5, "Property Damage": 3}, "bySite": {"Checked Baggage": 8}}, {"code": "HIB", "name": "CHISHOLM HIBBING", "city": "HIBBING", "lat": 47.386, "lon": -92.839, "claims": 8, "byType": {"Passenger Property Loss": 3, "Property Damage": 5}, "bySite": {"Checked Baggage": 7, "Checkpoint": 1}}, {"code": "PRC", "name": "ERNEST A LOVE FLD", "city": "PRESCOTT", "lat": 34.654, "lon": -112.419, "claims": 7, "byType": {"Passenger Property Loss": 4, "Property Damage": 3}, "bySite": {"Checked Baggage": 5, "Checkpoint": 2}}, {"code": "ART", "name": "WATERTOWN INTERNATIONAL", "city": "WATERTOWN", "lat": 43.992, "lon": -76.022, "claims": 6, "byType": {"Passenger Property Loss": 5, "Property Damage": 1}, "bySite": {"Checked Baggage": 5, "Checkpoint": 1}}, {"code": "AUG", "name": "AUGUSTA STATE", "city": "AUGUSTA", "lat": 44.321, "lon": -69.797, "claims": 6, "byType": {"Passenger Property Loss": 3, "Property Damage": 3}, "bySite": {"Checked Baggage": 6}}, {"code": "CDC", "name": "CEDAR CITY RGNL", "city": "CEDAR CITY", "lat": 37.701, "lon": -113.099, "claims": 6, "byType": {"Passenger Property Loss": 4, "Property Damage": 2}, "bySite": {"Checked Baggage": 6}}, {"code": "DRT", "name": "DEL RIO INTERNATIONAL", "city": "DEL RIO", "lat": 29.373, "lon": -100.926, "claims": 5, "byType": {"Passenger Property Loss": 3, "Property Damage": 2}, "bySite": {"Checked Baggage": 5}}, {"code": "ISN", "name": "SLOULIN FLD INTERNATIONAL", "city": "WILLISTON", "lat": 48.178, "lon": -103.642, "claims": 5, "byType": {"Passenger Property Loss": 2, "Property Damage": 3}, "bySite": {"Checked Baggage": 5}}, {"code": "PUB", "name": "PUEBLO MEM", "city": "PUEBLO MEMORIAL", "lat": 38.289, "lon": -104.496, "claims": 5, "byType": {"Passenger Property Loss": 5}, "bySite": {"Checked Baggage": 4, "Checkpoint": 1}}, {"code": "FMN", "name": "FOUR CORNERS RGNL", "city": "FARMINGTON", "lat": 36.741, "lon": -108.23, "claims": 4, "byType": {"Passenger Property Loss": 2, "Property Damage": 2}, "bySite": {"Checked Baggage": 1, "Checkpoint": 2}}, {"code": "AOO", "name": "ALTOONA BLAIR CO", "city": "ALTOONA", "lat": 40.296, "lon": -78.32, "claims": 3, "byType": {"Passenger Property Loss": 1, "Property Damage": 2}, "bySite": {"Checked Baggage": 2, "Checkpoint": 1}}, {"code": "OGS", "name": "OGDENSBURG INTERNATIONAL", "city": "OGDENSBURG", "lat": 44.682, "lon": -75.466, "claims": 3, "byType": {"Passenger Property Loss": 1, "Property Damage": 2}, "bySite": {"Checked Baggage": 3}}, {"code": "PQI", "name": "NORTHERN MAINE RGNL AT PRESQUE ISLE", "city": "PRESQUE ISLE", "lat": 46.689, "lon": -68.045, "claims": 3, "byType": {"Passenger Property Loss": 2, "Property Damage": 1}, "bySite": {"Checked Baggage": 3}}, {"code": "TBN", "name": "WAYNESVILLE RGNL ARPT AT FORNEY FLD", "city": "FORT LEONARDWOOD", "lat": 37.741, "lon": -92.141, "claims": 3, "byType": {"Passenger Property Loss": 2, "Property Damage": 1}, "bySite": {"Checked Baggage": 3}}, {"code": "HON", "name": "HURON RGNL", "city": "HURON", "lat": 44.385, "lon": -98.228, "claims": 2, "byType": {"Passenger Property Loss": 2}, "bySite": {"Checked Baggage": 2}}, {"code": "IPL", "name": "IMPERIAL CO", "city": "IMPERIAL", "lat": 32.834, "lon": -115.579, "claims": 2, "byType": {"Passenger Property Loss": 2}, "bySite": {"Checked Baggage": 2}}, {"code": "MKL", "name": "MC KELLAR SIPES RGNL", "city": "JACKSON", "lat": 35.6, "lon": -88.916, "claims": 2, "byType": {"Passenger Property Loss": 1, "Property Damage": 1}, "bySite": {"Checked Baggage": 1, "Checkpoint": 1}}, {"code": "HKY", "name": "HICKORY RGNL", "city": "HICKORY", "lat": 35.741, "lon": -81.389, "claims": 1, "byType": {"Property Damage": 1}, "bySite": {"Checked Baggage": 1}}, {"code": "HOB", "name": "LEA CO RGNL", "city": "HOBBS", "lat": 32.688, "lon": -103.217, "claims": 1, "byType": {"Passenger Property Loss": 1}, "bySite": {"Checked Baggage": 1}}, {"code": "HRO", "name": "BOONE CO", "city": "HARRISON", "lat": 36.261, "lon": -93.155, "claims": 1, "byType": {"Passenger Property Loss": 1}, "bySite": {"Checked Baggage": 1}}, {"code": "JBR", "name": "JONESBORO MUNI", "city": "JONESBORO", "lat": 35.832, "lon": -90.646, "claims": 1, "byType": {"Passenger Property Loss": 1}, "bySite": {"Checked Baggage": 1}}, {"code": "MWH", "name": "GRANT CO INTERNATIONAL", "city": "GRANT COUNTY AIRPORT", "lat": 47.208, "lon": -119.32, "claims": 1, "byType": {"Passenger Property Loss": 1}, "bySite": {"Checked Baggage": 1}}, {"code": "PMD", "name": "PALMDALE PROD FLT TEST INSTL AF PLT 42", "city": "PALMDALE", "lat": 34.629, "lon": -118.084, "claims": 1, "byType": {"Personal Injury": 1}, "bySite": {"-": 1}}, {"code": "PNC", "name": "PONCA CITY MUNI", "city": "PONCA CITY", "lat": 36.731, "lon": -97.1, "claims": 1, "byType": {"Property Damage": 1}, "bySite": {"Checkpoint": 1}}, {"code": "RME", "name": "GRIFFISS AIRPARK", "city": "ROME", "lat": 43.234, "lon": -75.407, "claims": 1, "byType": {"Property Damage": 1}, "bySite": {"Checked Baggage": 1}}, {"code": "ROW", "name": "ROSWELL INDUSTRIAL AIR CENTER", "city": "ROSWELL", "lat": 33.301, "lon": -104.531, "claims": 1, "byType": {"Property Damage": 1}, "bySite": {"Checked Baggage": 1}}], "claimTypeCounts": {"Passenger Property Loss": 117791, "Property Damage": 75281, "Personal Injury": 1465, "Employee Loss (MPCECA)": 485, "Passenger Theft": 464, "Motor Vehicle": 369, "-": 282, "Complaint": 48, "Wrongful Death": 4, "Compliment": 3, "Bus Terminal": 1}, "claimSiteCounts": {"Checked Baggage": 159656, "Checkpoint": 40068, "Other": 2857, "Motor Vehicle": 474, "-": 276, "Bus Station": 16}}